{"type":"FeatureCollection","features":[{"type":"Feature","geometry":{"type":"Point","coordinates":[139.7873965,35.7443017]},"properties":{"名前":"第五中学校","住所":"荒川区町屋1-37-16"}},{"type":"Feature","geometry":{"type":"Point","coordinates":[139.7802583,35.7449928]},"properties":{"名前":"第四峡田小学校","住所":"荒川区町屋2-11-6"}},{"type":"Feature","geometry":{"type":"Point","coordinates":[139.7817896,35.7478065]},"properties":{"名前":"第五峡田小学校","住所":"荒川区町屋3-17-24"}},{"type":"Feature","geometry":{"type":"Point","coordinates":[139.777489,35.749562]},"properties":{"名前":"大門小学校","住所":"荒川区町屋4-27-8"}},{"type":"Feature","geometry":{"type":"Point","coordinates":[139.7801632,35.7495882]},"properties":{"名前":"原中学校","住所":"荒川区町屋5-12-6"}},{"type":"Feature","geometry":{"type":"Point","coordinates":[139.7879389,35.7478803]},"properties":{"名前":"第七峡田小学校","住所":"荒川区町屋8-19-12"}},{"type":"Feature","geometry":{"type":"Point","coordinates":[139.7880188,35.7345232]},"properties":{"名前":"第一中学校","住所":"荒川区荒川1-30-1"}},{"type":"Feature","geometry":{"type":"Point","coordinates":[139.7861983,35.733469]},"properties":{"名前":"第三峡田小学校","住所":"荒川区荒川1-43-1"}},{"type":"Feature","geometry":{"type":"Point","coordinates":[139.7825616,35.7382222]},"properties":{"名前":"第二峡田小学校","住所":"荒川区荒川2-30-1"}},{"type":"Feature","geometry":{"type":"Point","coordinates":[139.7798635,35.7346326]},"properties":{"名前":"生涯学習センター","住所":"荒川区荒川3-49-1"}},{"type":"Feature","geometry":{"type":"Point","coordinates":[139.7775661,35.7360398]},"properties":{"名前":"峡田小学校","住所":"荒川区荒川3-77-1"}},{"type":"Feature","geometry":{"type":"Point","coordinates":[139.779368,35.7424918]},"properties":{"名前":"第九峡田小学校","住所":"荒川区荒川6-8-1"}},{"type":"Feature","geometry":{"type":"Point","coordinates":[139.7757872,35.7411648]},"properties":{"名前":"第四中学校","住所":"荒川区荒川6-57-1"}},{"type":"Feature","geometry":{"type":"Point","coordinates":[139.7922742,35.7377543]},"properties":{"名前":"荒川工業高校","住所":"荒川区南千住6-42-1"}},{"type":"Feature","geometry":{"type":"Point","coordinates":[139.7996723,35.7362486]},"properties":{"名前":"南千住第二中学校","住所":"荒川区南千住7-25-1"}},{"type":"Feature","geometry":{"type":"Point","coordinates":[139.8073717,35.7351747]},"properties":{"名前":"汐入小学校","住所":"荒川区南千住8-2-3"}},{"type":"Feature","geometry":{"type":"Point","coordinates":[139.8115774,35.7381023]},"properties":{"名前":"第三中学校","住所":"荒川区南千住8-10-1"}},{"type":"Feature","geometry":{"type":"Point","coordinates":[139.7647638,35.7461896]},"properties":{"名前":"尾久宮前小学校","住所":"荒川区西尾久1-4-17"}},{"type":"Feature","geometry":{"type":"Point","coordinates":[139.7585377,35.746302]},"properties":{"名前":"第七中学校","住所":"荒川区西尾久4-30-28"}},{"type":"Feature","geometry":{"type":"Point","coordinates":[139.7586962,35.7499616]},"properties":{"名前":"尾久西小学校","住所":"荒川区西尾久5-27-12"}},{"type":"Feature","geometry":{"type":"Point","coordinates":[139.7543143,35.7517993]},"properties":{"名前":"尾久第六小学校","住所":"荒川区西尾久8-26-9"}},{"type":"Feature","geometry":{"type":"Point","coordinates":[139.7727764,35.7431715]},"properties":{"名前":"第九中学校","住所":"荒川区東尾久2-23-5"}},{"type":"Feature","geometry":{"type":"Point","coordinates":[139.7690092,35.7426897]},"properties":{"名前":"赤土小学校","住所":"荒川区東尾久2-43-9"}},{"type":"Feature","geometry":{"type":"Point","coordinates":[139.7690718,35.7470048]},"properties":{"名前":"尾久小学校","住所":"荒川区東尾久5-6-7"}},{"type":"Feature","geometry":{"type":"Point","coordinates":[139.7718001,35.7326052]},"properties":{"名前":"諏訪台中学校","住所":"荒川区西日暮里2-36-8"}},{"type":"Feature","geometry":{"type":"Point","coordinates":[139.7697842,35.7353912]},"properties":{"名前":"第六日暮里小学校","住所":"荒川区西日暮里6-35-16"}},{"type":"Feature","geometry":{"type":"Point","coordinates":[139.7815558,35.7289409]},"properties":{"名前":"第三日暮里小学校","住所":"荒川区東日暮里3-10-17"}},{"type":"Feature","geometry":{"type":"Point","coordinates":[139.7909168,35.7345741]},"properties":{"名前":"瑞光小学校","住所":"荒川区南千住1-51-1"}},{"type":"Feature","geometry":{"type":"Point","coordinates":[139.7725656,35.7315338]},"properties":{"名前":"ひぐらし小学校","住所":"荒川区西日暮里2-32-5"}},{"type":"Feature","geometry":{"type":"Point","coordinates":[139.7777465,35.7260446]},"properties":{"名前":"竹台高校","住所":"荒川区東日暮里5-14-1"}},{"type":"Feature","geometry":{"type":"Point","coordinates":[139.7894682,35.7329748]},"properties":{"名前":"第六瑞光小学校","住所":"荒川区南千住1-4-11"}},{"type":"Feature","geometry":{"type":"Point","coordinates":[139.7947607,35.7335236]},"properties":{"名前":"第二瑞光小学校","住所":"荒川区南千住5-8-1"}},{"type":"Feature","geometry":{"type":"Point","coordinates":[139.7986961,35.7355863]},"properties":{"名前":"第三瑞光小学校","住所":"荒川区南千住7-9-1"}},{"type":"Feature","geometry":{"type":"Point","coordinates":[139.8115627,35.7389438]},"properties":{"名前":"汐入東小学校","住所":"荒川区南千住8-9-3"}},{"type":"Feature","geometry":{"type":"Point","coordinates":[139.764242,35.7530166]},"properties":{"名前":"尾久八幡中学校","住所":"荒川区西尾久3-13-1"}},{"type":"Feature","geometry":{"type":"Point","coordinates":[139.7663484,35.7305417]},"properties":{"名前":"第一日暮里小学校","住所":"荒川区西日暮里3-7-15"}},{"type":"Feature","geometry":{"type":"Point","coordinates":[139.7782405,35.7282685]},"properties":{"名前":"第二日暮里小学校","住所":"荒川区東日暮里5-2-1"}}]}